Timestamp (s),Message ID,Vehicle Index,Position Validity,Latitude (Degrees),Longitude (Degrees),Heading Validity,Heading (Degrees),Attitude Validity,Pitch (Degrees),Roll (Degrees),Magnetic Yaw (Radians),Altitude Validity,Altitude (Metres),Velocity Validity,Velocity (nmi/hour)
 03/02/2022 17:50:00.000,7,0,TRUE,1.36192,103.91012,TRUE,23.07303332,TRUE,0,0,0,TRUE,10000,TRUE,100
 03/02/2022 17:50:00.010,7,0,TRUE,1.36194202,103.9101293,TRUE,23.07303354,TRUE,0,0,0,TRUE,10000,TRUE,100
 03/02/2022 17:50:00.020,7,0,TRUE,1.36196404,103.9101386,TRUE,23.07303376,TRUE,0,0,0,TRUE,10000,TRUE,100
 03/02/2022 17:50:00.030,7,0,TRUE,1.36198606,103.910148,TRUE,23.07303398,TRUE,0,0,0,TRUE,10000,TRUE,100
 03/02/2022 17:50:00.040,7,0,TRUE,1.36200808,103.9101573,TRUE,23.0730342,TRUE,0,0,0,TRUE,10000,TRUE,100
 03/02/2022 17:50:00.050,7,0,TRUE,1.3620301,103.9101666,TRUE,23.07303442,TRUE,0,0,0,TRUE,10000,TRUE,100
 03/02/2022 17:50:00.060,7,0,TRUE,1.36205212,103.9101759,TRUE,23.07303465,TRUE,0,0,0,TRUE,10000,TRUE,100
 03/02/2022 17:50:00.070,7,0,TRUE,1.36207414,103.9101852,TRUE,23.07303487,TRUE,0,0,0,TRUE,10000,TRUE,100
 03/02/2022 17:50:00.080,7,0,TRUE,1.36209616,103.9101946,TRUE,23.07303509,TRUE,0,0,0,TRUE,10000,TRUE,100
 03/02/2022 17:50:00.090,7,0,TRUE,1.36211818,103.9102039,TRUE,23.0730353,TRUE,0,0,0,TRUE,10000,TRUE,100
 03/02/2022 17:50:00.100,7,0,TRUE,1.3621402,103.9102132,TRUE,23.07303553,TRUE,0,0,0,TRUE,10000,TRUE,100
 03/02/2022 17:50:00.110,7,0,TRUE,1.36216222,103.9102225,TRUE,23.07303576,TRUE,0,0,0,TRUE,10000,TRUE,100
 03/02/2022 17:50:00.120,7,0,TRUE,1.36218424,103.9102318,TRUE,23.07303597,TRUE,0,0,0,TRUE,10000,TRUE,100
 03/02/2022 17:50:00.130,7,0,TRUE,1.36220626,103.9102412,TRUE,23.07303619,TRUE,0,0,0,TRUE,10000,TRUE,100
 03/02/2022 17:50:00.140,7,0,TRUE,1.36222828,103.9102505,TRUE,23.07303642,TRUE,0,0,0,TRUE,10000,TRUE,100
 03/02/2022 17:50:00.150,7,0,TRUE,1.3622503,103.9102598,TRUE,23.07303664,TRUE,0,0,0,TRUE,10000,TRUE,100
 03/02/2022 17:50:00.160,7,0,TRUE,1.36227232,103.9102691,TRUE,23.07303686,TRUE,0,0,0,TRUE,10000,TRUE,100
 03/02/2022 17:50:00.170,7,0,TRUE,1.36229434,103.9102784,TRUE,23.07303708,TRUE,0,0,0,TRUE,10000,TRUE,100
 03/02/2022 17:50:00.180,7,0,TRUE,1.36231636,103.9102878,TRUE,23.0730373,TRUE,0,0,0,TRUE,10000,TRUE,100
 03/02/2022 17:50:00.190,7,0,TRUE,1.36233838,103.9102971,TRUE,23.07303752,TRUE,0,0,0,TRUE,10000,TRUE,100
 03/02/2022 17:50:00.200,7,0,TRUE,1.3623604,103.9103064,TRUE,23.07303775,TRUE,0,0,0,TRUE,10000,TRUE,100
 03/02/2022 17:50:00.210,7,0,TRUE,1.36238242,103.9103157,TRUE,23.07303797,TRUE,0,0,0,TRUE,10000,TRUE,100
 03/02/2022 17:50:00.220,7,0,TRUE,1.36240444,103.910325,TRUE,23.07303819,TRUE,0,0,0,TRUE,10000,TRUE,100
 03/02/2022 17:50:00.230,7,0,TRUE,1.36242646,103.9103344,TRUE,23.07303841,TRUE,0,0,0,TRUE,10000,TRUE,100
 03/02/2022 17:50:00.240,7,0,TRUE,1.36244848,103.9103437,TRUE,23.07303863,TRUE,0,0,0,TRUE,10000,TRUE,100
 03/02/2022 17:50:00.250,7,0,TRUE,1.3624705,103.910353,TRUE,23.07303886,TRUE,0,0,0,TRUE,10000,TRUE,100
 03/02/2022 17:50:00.260,7,0,TRUE,1.36249252,103.9103623,TRUE,23.07303908,TRUE,0,0,0,TRUE,10000,TRUE,100
 03/02/2022 17:50:00.270,7,0,TRUE,1.36251454,103.9103716,TRUE,23.0730393,TRUE,0,0,0,TRUE,10000,TRUE,100
 03/02/2022 17:50:00.280,7,0,TRUE,1.36253656,103.910381,TRUE,23.07303952,TRUE,0,0,0,TRUE,10000,TRUE,100
 03/02/2022 17:50:00.290,7,0,TRUE,1.36255858,103.9103903,TRUE,23.07303974,TRUE,0,0,0,TRUE,10000,TRUE,100
 03/02/2022 17:50:00.300,7,0,TRUE,1.3625806,103.9103996,TRUE,23.07303996,TRUE,0,0,0,TRUE,10000,TRUE,100
 03/02/2022 17:50:00.310,7,0,TRUE,1.36260262,103.9104089,TRUE,23.07304019,TRUE,0,0,0,TRUE,10000,TRUE,100
 03/02/2022 17:50:00.320,7,0,TRUE,1.36262464,103.9104182,TRUE,23.0730404,TRUE,0,0,0,TRUE,10000,TRUE,100
 03/02/2022 17:50:00.330,7,0,TRUE,1.36264666,103.9104276,TRUE,23.07304063,TRUE,0,0,0,TRUE,10000,TRUE,100
 03/02/2022 17:50:00.340,7,0,TRUE,1.36266868,103.9104369,TRUE,23.07304085,TRUE,0,0,0,TRUE,10000,TRUE,100
 03/02/2022 17:50:00.350,7,0,TRUE,1.3626907,103.9104462,TRUE,23.07304107,TRUE,0,0,0,TRUE,10000,TRUE,100
 03/02/2022 17:50:00.360,7,0,TRUE,1.36271272,103.9104555,TRUE,23.0730413,TRUE,0,0,0,TRUE,10000,TRUE,100
 03/02/2022 17:50:00.370,7,0,TRUE,1.36273474,103.9104648,TRUE,23.07304152,TRUE,0,0,0,TRUE,10000,TRUE,100
 03/02/2022 17:50:00.380,7,0,TRUE,1.36275676,103.9104742,TRUE,23.07304173,TRUE,0,0,0,TRUE,10000,TRUE,100
 03/02/2022 17:50:00.390,7,0,TRUE,1.36277878,103.9104835,TRUE,23.07304196,TRUE,0,0,0,TRUE,10000,TRUE,100
 03/02/2022 17:50:00.400,7,0,TRUE,1.3628008,103.9104928,TRUE,23.07304218,TRUE,0,0,0,TRUE,10000,TRUE,100
 03/02/2022 17:50:00.410,7,0,TRUE,1.36282282,103.9105021,TRUE,23.0730424,TRUE,0,0,0,TRUE,10000,TRUE,100
 03/02/2022 17:50:00.420,7,0,TRUE,1.36284484,103.9105114,TRUE,23.07304263,TRUE,0,0,0,TRUE,10000,TRUE,100
 03/02/2022 17:50:00.430,7,0,TRUE,1.36286686,103.9105208,TRUE,23.07304284,TRUE,0,0,0,TRUE,10000,TRUE,100
 03/02/2022 17:50:00.440,7,0,TRUE,1.36288888,103.9105301,TRUE,23.07304306,TRUE,0,0,0,TRUE,10000,TRUE,100
 03/02/2022 17:50:00.450,7,0,TRUE,1.3629109,103.9105394,TRUE,23.0730433,TRUE,0,0,0,TRUE,10000,TRUE,100
 03/02/2022 17:50:00.460,7,0,TRUE,1.36293292,103.9105487,TRUE,23.0730435,TRUE,0,0,0,TRUE,10000,TRUE,100
 03/02/2022 17:50:00.470,7,0,TRUE,1.36295494,103.910558,TRUE,23.07304373,TRUE,0,0,0,TRUE,10000,TRUE,100
 03/02/2022 17:50:00.480,7,0,TRUE,1.36297696,103.9105674,TRUE,23.07304396,TRUE,0,0,0,TRUE,10000,TRUE,100
 03/02/2022 17:50:00.490,7,0,TRUE,1.36299898,103.9105767,TRUE,23.07304418,TRUE,0,0,0,TRUE,10000,TRUE,100
 03/02/2022 17:50:00.500,7,0,TRUE,1.363021,103.910586,TRUE,23.07304439,TRUE,0,0,0,TRUE,10000,TRUE,100
 03/02/2022 17:50:00.510,7,0,TRUE,1.36304302,103.9105953,TRUE,23.07304462,TRUE,0,0,0,TRUE,10000,TRUE,100
 03/02/2022 17:50:00.520,7,0,TRUE,1.36306504,103.9106046,TRUE,23.07304484,TRUE,0,0,0,TRUE,10000,TRUE,100
 03/02/2022 17:50:00.530,7,0,TRUE,1.36308706,103.910614,TRUE,23.07304506,TRUE,0,0,0,TRUE,10000,TRUE,100
 03/02/2022 17:50:00.540,7,0,TRUE,1.36310908,103.9106233,TRUE,23.07304529,TRUE,0,0,0,TRUE,10000,TRUE,100
 03/02/2022 17:50:00.550,7,0,TRUE,1.3631311,103.9106326,TRUE,23.0730455,TRUE,0,0,0,TRUE,10000,TRUE,100
 03/02/2022 17:50:00.560,7,0,TRUE,1.36315312,103.9106419,TRUE,23.07304572,TRUE,0,0,0,TRUE,10000,TRUE,100
 03/02/2022 17:50:00.570,7,0,TRUE,1.363175141,103.9106512,TRUE,23.07304595,TRUE,0,0,0,TRUE,10000,TRUE,100
 03/02/2022 17:50:00.580,7,0,TRUE,1.363197161,103.9106606,TRUE,23.07304617,TRUE,0,0,0,TRUE,10000,TRUE,100
 03/02/2022 17:50:00.590,7,0,TRUE,1.363219181,103.9106699,TRUE,23.07304639,TRUE,0,0,0,TRUE,10000,TRUE,100
 03/02/2022 17:50:00.600,7,0,TRUE,1.363241201,103.9106792,TRUE,23.07304662,TRUE,0,0,0,TRUE,10000,TRUE,100
 03/02/2022 17:50:00.610,7,0,TRUE,1.363263221,103.9106885,TRUE,23.07304683,TRUE,0,0,0,TRUE,10000,TRUE,100
 03/02/2022 17:50:00.620,7,0,TRUE,1.363285241,103.9106978,TRUE,23.07304706,TRUE,0,0,0,TRUE,10000,TRUE,100
 03/02/2022 17:50:00.630,7,0,TRUE,1.363307261,103.9107072,TRUE,23.07304728,TRUE,0,0,0,TRUE,10000,TRUE,100
 03/02/2022 17:50:00.640,7,0,TRUE,1.363329281,103.9107165,TRUE,23.0730475,TRUE,0,0,0,TRUE,10000,TRUE,100
 03/02/2022 17:50:00.650,7,0,TRUE,1.363351301,103.9107258,TRUE,23.07304772,TRUE,0,0,0,TRUE,10000,TRUE,100
 03/02/2022 17:50:00.660,7,0,TRUE,1.363373321,103.9107351,TRUE,23.07304794,TRUE,0,0,0,TRUE,10000,TRUE,100
 03/02/2022 17:50:00.670,7,0,TRUE,1.363395341,103.9107444,TRUE,23.07304816,TRUE,0,0,0,TRUE,10000,TRUE,100
 03/02/2022 17:50:00.680,7,0,TRUE,1.363417361,103.9107538,TRUE,23.07304839,TRUE,0,0,0,TRUE,10000,TRUE,100
 03/02/2022 17:50:00.690,7,0,TRUE,1.363439381,103.9107631,TRUE,23.0730486,TRUE,0,0,0,TRUE,10000,TRUE,100
 03/02/2022 17:50:00.700,7,0,TRUE,1.363461401,103.9107724,TRUE,23.07304883,TRUE,0,0,0,TRUE,10000,TRUE,100
 03/02/2022 17:50:00.710,7,0,TRUE,1.363483421,103.9107817,TRUE,23.07304907,TRUE,0,0,0,TRUE,10000,TRUE,100
 03/02/2022 17:50:00.720,7,0,TRUE,1.363505441,103.910791,TRUE,23.07304927,TRUE,0,0,0,TRUE,10000,TRUE,100
 03/02/2022 17:50:00.730,7,0,TRUE,1.363527461,103.9108004,TRUE,23.07304949,TRUE,0,0,0,TRUE,10000,TRUE,100
 03/02/2022 17:50:00.740,7,0,TRUE,1.363549481,103.9108097,TRUE,23.07304973,TRUE,0,0,0,TRUE,10000,TRUE,100
 03/02/2022 17:50:00.750,7,0,TRUE,1.363571501,103.910819,TRUE,23.07304994,TRUE,0,0,0,TRUE,10000,TRUE,100
 03/02/2022 17:50:00.760,7,0,TRUE,1.363593521,103.9108283,TRUE,23.07305016,TRUE,0,0,0,TRUE,10000,TRUE,100
 03/02/2022 17:50:00.770,7,0,TRUE,1.363615541,103.9108376,TRUE,23.07305039,TRUE,0,0,0,TRUE,10000,TRUE,100
 03/02/2022 17:50:00.780,7,0,TRUE,1.363637561,103.910847,TRUE,23.0730506,TRUE,0,0,0,TRUE,10000,TRUE,100
 03/02/2022 17:50:00.790,7,0,TRUE,1.363659581,103.9108563,TRUE,23.07305083,TRUE,0,0,0,TRUE,10000,TRUE,100
 03/02/2022 17:50:00.800,7,0,TRUE,1.363681601,103.9108656,TRUE,23.07305105,TRUE,0,0,0,TRUE,10000,TRUE,100
 03/02/2022 17:50:00.810,7,0,TRUE,1.363703621,103.9108749,TRUE,23.07305127,TRUE,0,0,0,TRUE,10000,TRUE,100
 03/02/2022 17:50:00.820,7,0,TRUE,1.363725641,103.9108842,TRUE,23.07305149,TRUE,0,0,0,TRUE,10000,TRUE,100
 03/02/2022 17:50:00.830,7,0,TRUE,1.363747661,103.9108936,TRUE,23.07305171,TRUE,0,0,0,TRUE,10000,TRUE,100
 03/02/2022 17:50:00.840,7,0,TRUE,1.363769681,103.9109029,TRUE,23.07305193,TRUE,0,0,0,TRUE,10000,TRUE,100
 03/02/2022 17:50:00.850,7,0,TRUE,1.363791701,103.9109122,TRUE,23.07305216,TRUE,0,0,0,TRUE,10000,TRUE,100
 03/02/2022 17:50:00.860,7,0,TRUE,1.363813721,103.9109215,TRUE,23.07305237,TRUE,0,0,0,TRUE,10000,TRUE,100
 03/02/2022 17:50:00.870,7,0,TRUE,1.363835741,103.9109308,TRUE,23.07305259,TRUE,0,0,0,TRUE,10000,TRUE,100
 03/02/2022 17:50:00.880,7,0,TRUE,1.363857761,103.9109402,TRUE,23.07305282,TRUE,0,0,0,TRUE,10000,TRUE,100
 03/02/2022 17:50:00.890,7,0,TRUE,1.363879781,103.9109495,TRUE,23.07305305,TRUE,0,0,0,TRUE,10000,TRUE,100
 03/02/2022 17:50:00.900,7,0,TRUE,1.363901801,103.9109588,TRUE,23.07305327,TRUE,0,0,0,TRUE,10000,TRUE,100
 03/02/2022 17:50:00.910,7,0,TRUE,1.363923821,103.9109681,TRUE,23.07305349,TRUE,0,0,0,TRUE,10000,TRUE,100
 03/02/2022 17:50:00.920,7,0,TRUE,1.363945841,103.9109774,TRUE,23.0730537,TRUE,0,0,0,TRUE,10000,TRUE,100
 03/02/2022 17:50:00.930,7,0,TRUE,1.363967861,103.9109868,TRUE,23.07305393,TRUE,0,0,0,TRUE,10000,TRUE,100
 03/02/2022 17:50:00.940,7,0,TRUE,1.363989881,103.9109961,TRUE,23.07305416,TRUE,0,0,0,TRUE,10000,TRUE,100
 03/02/2022 17:50:00.950,7,0,TRUE,1.364011901,103.9110054,TRUE,23.07305438,TRUE,0,0,0,TRUE,10000,TRUE,100
 03/02/2022 17:50:00.960,7,0,TRUE,1.364033921,103.9110147,TRUE,23.0730546,TRUE,0,0,0,TRUE,10000,TRUE,100
 03/02/2022 17:50:00.970,7,0,TRUE,1.364055941,103.911024,TRUE,23.07305482,TRUE,0,0,0,TRUE,10000,TRUE,100
 03/02/2022 17:50:00.980,7,0,TRUE,1.364077961,103.9110334,TRUE,23.07305504,TRUE,0,0,0,TRUE,10000,TRUE,100
 03/02/2022 17:50:00.990,7,0,TRUE,1.364099981,103.9110427,TRUE,23.07305526,TRUE,0,0,0,TRUE,10000,TRUE,100
 03/02/2022 17:50:01.000,7,0,TRUE,1.364122001,103.911052,TRUE,23.07305548,TRUE,0,0,0,TRUE,10000,TRUE,100
 03/02/2022 17:50:01.010,7,0,TRUE,1.364144021,103.9110613,TRUE,23.0730557,TRUE,0,0,0,TRUE,10000,TRUE,100
 03/02/2022 17:50:01.020,7,0,TRUE,1.364166041,103.9110706,TRUE,23.07305594,TRUE,0,0,0,TRUE,10000,TRUE,100
 03/02/2022 17:50:01.030,7,0,TRUE,1.364188061,103.91108,TRUE,23.07305615,TRUE,0,0,0,TRUE,10000,TRUE,100
 03/02/2022 17:50:01.040,7,0,TRUE,1.364210081,103.9110893,TRUE,23.07305637,TRUE,0,0,0,TRUE,10000,TRUE,100
 03/02/2022 17:50:01.050,7,0,TRUE,1.364232101,103.9110986,TRUE,23.0730566,TRUE,0,0,0,TRUE,10000,TRUE,100
 03/02/2022 17:50:01.060,7,0,TRUE,1.364254121,103.9111079,TRUE,23.07305682,TRUE,0,0,0,TRUE,10000,TRUE,100
 03/02/2022 17:50:01.070,7,0,TRUE,1.364276141,103.9111172,TRUE,23.07305704,TRUE,0,0,0,TRUE,10000,TRUE,100
 03/02/2022 17:50:01.080,7,0,TRUE,1.364298161,103.9111266,TRUE,23.07305726,TRUE,0,0,0,TRUE,10000,TRUE,100
 03/02/2022 17:50:01.090,7,0,TRUE,1.364320181,103.9111359,TRUE,23.07305748,TRUE,0,0,0,TRUE,10000,TRUE,100
 03/02/2022 17:50:01.100,7,0,TRUE,1.364342201,103.9111452,TRUE,23.0730577,TRUE,0,0,0,TRUE,10000,TRUE,100
 03/02/2022 17:50:01.110,7,0,TRUE,1.364364221,103.9111545,TRUE,23.07305793,TRUE,0,0,0,TRUE,10000,TRUE,100
 03/02/2022 17:50:01.120,7,0,TRUE,1.364386241,103.9111638,TRUE,23.07305815,TRUE,0,0,0,TRUE,10000,TRUE,100
 03/02/2022 17:50:01.130,7,0,TRUE,1.364408261,103.9111732,TRUE,23.07305837,TRUE,0,0,0,TRUE,10000,TRUE,100
 03/02/2022 17:50:01.140,7,0,TRUE,1.364430281,103.9111825,TRUE,23.07305859,TRUE,0,0,0,TRUE,10000,TRUE,100
 03/02/2022 17:50:01.150,7,0,TRUE,1.364452301,103.9111918,TRUE,23.07305882,TRUE,0,0,0,TRUE,10000,TRUE,100
 03/02/2022 17:50:01.160,7,0,TRUE,1.364474321,103.9112011,TRUE,23.07305904,TRUE,0,0,0,TRUE,10000,TRUE,100
 03/02/2022 17:50:01.170,7,0,TRUE,1.364496341,103.9112104,TRUE,23.07305925,TRUE,0,0,0,TRUE,10000,TRUE,100
 03/02/2022 17:50:01.180,7,0,TRUE,1.364518361,103.9112198,TRUE,23.07305948,TRUE,0,0,0,TRUE,10000,TRUE,100
 03/02/2022 17:50:01.190,7,0,TRUE,1.364540381,103.9112291,TRUE,23.0730597,TRUE,0,0,0,TRUE,10000,TRUE,100
 03/02/2022 17:50:01.200,7,0,TRUE,1.364562401,103.9112384,TRUE,23.07305993,TRUE,0,0,0,TRUE,10000,TRUE,100
 03/02/2022 17:50:01.210,7,0,TRUE,1.364584421,103.9112477,TRUE,23.07306015,TRUE,0,0,0,TRUE,10000,TRUE,100
 03/02/2022 17:50:01.220,7,0,TRUE,1.364606441,103.911257,TRUE,23.07306037,TRUE,0,0,0,TRUE,10000,TRUE,100
 03/02/2022 17:50:01.230,7,0,TRUE,1.364628461,103.9112664,TRUE,23.07306059,TRUE,0,0,0,TRUE,10000,TRUE,100
 03/02/2022 17:50:01.240,7,0,TRUE,1.364650481,103.9112757,TRUE,23.07306081,TRUE,0,0,0,TRUE,10000,TRUE,100
 03/02/2022 17:50:01.250,7,0,TRUE,1.364672501,103.911285,TRUE,23.07306104,TRUE,0,0,0,TRUE,10000,TRUE,100
 03/02/2022 17:50:01.260,7,0,TRUE,1.364694521,103.9112943,TRUE,23.07306126,TRUE,0,0,0,TRUE,10000,TRUE,100
 03/02/2022 17:50:01.270,7,0,TRUE,1.364716541,103.9113036,TRUE,23.07306147,TRUE,0,0,0,TRUE,10000,TRUE,100
 03/02/2022 17:50:01.280,7,0,TRUE,1.364738561,103.911313,TRUE,23.07306169,TRUE,0,0,0,TRUE,10000,TRUE,100
 03/02/2022 17:50:01.290,7,0,TRUE,1.364760581,103.9113223,TRUE,23.07306191,TRUE,0,0,0,TRUE,10000,TRUE,100
 03/02/2022 17:50:01.300,7,0,TRUE,1.364782601,103.9113316,TRUE,23.07306215,TRUE,0,0,0,TRUE,10000,TRUE,100
 03/02/2022 17:50:01.310,7,0,TRUE,1.364804621,103.9113409,TRUE,23.07306237,TRUE,0,0,0,TRUE,10000,TRUE,100
 03/02/2022 17:50:01.320,7,0,TRUE,1.364826641,103.9113502,TRUE,23.07306259,TRUE,0,0,0,TRUE,10000,TRUE,100
 03/02/2022 17:50:01.330,7,0,TRUE,1.364848661,103.9113596,TRUE,23.07306281,TRUE,0,0,0,TRUE,10000,TRUE,100
 03/02/2022 17:50:01.340,7,0,TRUE,1.364870681,103.9113689,TRUE,23.07306303,TRUE,0,0,0,TRUE,10000,TRUE,100
 03/02/2022 17:50:01.350,7,0,TRUE,1.364892701,103.9113782,TRUE,23.07306325,TRUE,0,0,0,TRUE,10000,TRUE,100
 03/02/2022 17:50:01.360,7,0,TRUE,1.364914721,103.9113875,TRUE,23.07306347,TRUE,0,0,0,TRUE,10000,TRUE,100
 03/02/2022 17:50:01.370,7,0,TRUE,1.364936741,103.9113968,TRUE,23.07306369,TRUE,0,0,0,TRUE,10000,TRUE,100
 03/02/2022 17:50:01.380,7,0,TRUE,1.364958761,103.9114062,TRUE,23.07306393,TRUE,0,0,0,TRUE,10000,TRUE,100
 03/02/2022 17:50:01.390,7,0,TRUE,1.364980781,103.9114155,TRUE,23.07306414,TRUE,0,0,0,TRUE,10000,TRUE,100
 03/02/2022 17:50:01.400,7,0,TRUE,1.365002801,103.9114248,TRUE,23.07306436,TRUE,0,0,0,TRUE,10000,TRUE,100
 03/02/2022 17:50:01.410,7,0,TRUE,1.365024821,103.9114341,TRUE,23.07306459,TRUE,0,0,0,TRUE,10000,TRUE,100
 03/02/2022 17:50:01.420,7,0,TRUE,1.365046841,103.9114434,TRUE,23.07306481,TRUE,0,0,0,TRUE,10000,TRUE,100
 03/02/2022 17:50:01.430,7,0,TRUE,1.365068861,103.9114528,TRUE,23.07306503,TRUE,0,0,0,TRUE,10000,TRUE,100
 03/02/2022 17:50:01.440,7,0,TRUE,1.365090881,103.9114621,TRUE,23.07306526,TRUE,0,0,0,TRUE,10000,TRUE,100
 03/02/2022 17:50:01.450,7,0,TRUE,1.365112901,103.9114714,TRUE,23.07306548,TRUE,0,0,0,TRUE,10000,TRUE,100
 03/02/2022 17:50:01.460,7,0,TRUE,1.365134921,103.9114807,TRUE,23.07306569,TRUE,0,0,0,TRUE,10000,TRUE,100
 03/02/2022 17:50:01.470,7,0,TRUE,1.365156941,103.91149,TRUE,23.07306592,TRUE,0,0,0,TRUE,10000,TRUE,100
 03/02/2022 17:50:01.480,7,0,TRUE,1.365178961,103.9114994,TRUE,23.07306614,TRUE,0,0,0,TRUE,10000,TRUE,100
 03/02/2022 17:50:01.490,7,0,TRUE,1.365200981,103.9115087,TRUE,23.07306636,TRUE,0,0,0,TRUE,10000,TRUE,100
 03/02/2022 17:50:01.500,7,0,TRUE,1.365223001,103.911518,TRUE,23.07306659,TRUE,0,0,0,TRUE,10000,TRUE,100
 03/02/2022 17:50:01.510,7,0,TRUE,1.365245021,103.9115273,TRUE,23.07306681,TRUE,0,0,0,TRUE,10000,TRUE,100
 03/02/2022 17:50:01.520,7,0,TRUE,1.365267041,103.9115366,TRUE,23.07306703,TRUE,0,0,0,TRUE,10000,TRUE,100
 03/02/2022 17:50:01.530,7,0,TRUE,1.365289061,103.911546,TRUE,23.07306725,TRUE,0,0,0,TRUE,10000,TRUE,100
 03/02/2022 17:50:01.540,7,0,TRUE,1.365311081,103.9115553,TRUE,23.07306747,TRUE,0,0,0,TRUE,10000,TRUE,100
 03/02/2022 17:50:01.550,7,0,TRUE,1.365333101,103.9115646,TRUE,23.07306769,TRUE,0,0,0,TRUE,10000,TRUE,100
 03/02/2022 17:50:01.560,7,0,TRUE,1.365355121,103.9115739,TRUE,23.07306792,TRUE,0,0,0,TRUE,10000,TRUE,100
 03/02/2022 17:50:01.570,7,0,TRUE,1.365377141,103.9115832,TRUE,23.07306814,TRUE,0,0,0,TRUE,10000,TRUE,100
 03/02/2022 17:50:01.580,7,0,TRUE,1.365399161,103.9115926,TRUE,23.07306836,TRUE,0,0,0,TRUE,10000,TRUE,100
 03/02/2022 17:50:01.590,7,0,TRUE,1.365421181,103.9116019,TRUE,23.07306858,TRUE,0,0,0,TRUE,10000,TRUE,100
 03/02/2022 17:50:01.600,7,0,TRUE,1.365443201,103.9116112,TRUE,23.0730688,TRUE,0,0,0,TRUE,10000,TRUE,100
 03/02/2022 17:50:01.610,7,0,TRUE,1.365465221,103.9116205,TRUE,23.07306903,TRUE,0,0,0,TRUE,10000,TRUE,100
 03/02/2022 17:50:01.620,7,0,TRUE,1.365487241,103.9116298,TRUE,23.07306926,TRUE,0,0,0,TRUE,10000,TRUE,100
 03/02/2022 17:50:01.630,7,0,TRUE,1.365509261,103.9116392,TRUE,23.07306947,TRUE,0,0,0,TRUE,10000,TRUE,100
 03/02/2022 17:50:01.640,7,0,TRUE,1.365531281,103.9116485,TRUE,23.07306969,TRUE,0,0,0,TRUE,10000,TRUE,100
 03/02/2022 17:50:01.650,7,0,TRUE,1.365553301,103.9116578,TRUE,23.07306992,TRUE,0,0,0,TRUE,10000,TRUE,100
 03/02/2022 17:50:01.660,7,0,TRUE,1.365575321,103.9116671,TRUE,23.07307013,TRUE,0,0,0,TRUE,10000,TRUE,100
 03/02/2022 17:50:01.670,7,0,TRUE,1.365597341,103.9116764,TRUE,23.07307037,TRUE,0,0,0,TRUE,10000,TRUE,100
 03/02/2022 17:50:01.680,7,0,TRUE,1.365619361,103.9116858,TRUE,23.07307059,TRUE,0,0,0,TRUE,10000,TRUE,100
 03/02/2022 17:50:01.690,7,0,TRUE,1.365641381,103.9116951,TRUE,23.07307081,TRUE,0,0,0,TRUE,10000,TRUE,100
 03/02/2022 17:50:01.700,7,0,TRUE,1.365663401,103.9117044,TRUE,23.07307103,TRUE,0,0,0,TRUE,10000,TRUE,100
 03/02/2022 17:50:01.710,7,0,TRUE,1.365685421,103.9117137,TRUE,23.07307124,TRUE,0,0,0,TRUE,10000,TRUE,100
 03/02/2022 17:50:01.720,7,0,TRUE,1.365707441,103.911723,TRUE,23.07307146,TRUE,0,0,0,TRUE,10000,TRUE,100
 03/02/2022 17:50:01.730,7,0,TRUE,1.365729461,103.9117324,TRUE,23.07307169,TRUE,0,0,0,TRUE,10000,TRUE,100
 03/02/2022 17:50:01.740,7,0,TRUE,1.365751481,103.9117417,TRUE,23.07307192,TRUE,0,0,0,TRUE,10000,TRUE,100
 03/02/2022 17:50:01.750,7,0,TRUE,1.365773501,103.911751,TRUE,23.07307214,TRUE,0,0,0,TRUE,10000,TRUE,100
 03/02/2022 17:50:01.760,7,0,TRUE,1.365795521,103.9117603,TRUE,23.07307236,TRUE,0,0,0,TRUE,10000,TRUE,100
 03/02/2022 17:50:01.770,7,0,TRUE,1.365817541,103.9117696,TRUE,23.07307258,TRUE,0,0,0,TRUE,10000,TRUE,100
 03/02/2022 17:50:01.780,7,0,TRUE,1.365839561,103.911779,TRUE,23.0730728,TRUE,0,0,0,TRUE,10000,TRUE,100
 03/02/2022 17:50:01.790,7,0,TRUE,1.365861581,103.9117883,TRUE,23.07307302,TRUE,0,0,0,TRUE,10000,TRUE,100
 03/02/2022 17:50:01.800,7,0,TRUE,1.365883601,103.9117976,TRUE,23.07307324,TRUE,0,0,0,TRUE,10000,TRUE,100
 03/02/2022 17:50:01.810,7,0,TRUE,1.365905621,103.9118069,TRUE,23.07307347,TRUE,0,0,0,TRUE,10000,TRUE,100
 03/02/2022 17:50:01.820,7,0,TRUE,1.365927641,103.9118162,TRUE,23.07307369,TRUE,0,0,0,TRUE,10000,TRUE,100
 03/02/2022 17:50:01.830,7,0,TRUE,1.365949661,103.9118256,TRUE,23.07307391,TRUE,0,0,0,TRUE,10000,TRUE,100
 03/02/2022 17:50:01.840,7,0,TRUE,1.365971681,103.9118349,TRUE,23.07307413,TRUE,0,0,0,TRUE,10000,TRUE,100
 03/02/2022 17:50:01.850,7,0,TRUE,1.365993701,103.9118442,TRUE,23.07307435,TRUE,0,0,0,TRUE,10000,TRUE,100
 03/02/2022 17:50:01.860,7,0,TRUE,1.366015721,103.9118535,TRUE,23.07307458,TRUE,0,0,0,TRUE,10000,TRUE,100
 03/02/2022 17:50:01.870,7,0,TRUE,1.366037741,103.9118628,TRUE,23.0730748,TRUE,0,0,0,TRUE,10000,TRUE,100
 03/02/2022 17:50:01.880,7,0,TRUE,1.366059761,103.9118722,TRUE,23.07307502,TRUE,0,0,0,TRUE,10000,TRUE,100
 03/02/2022 17:50:01.890,7,0,TRUE,1.366081781,103.9118815,TRUE,23.07307524,TRUE,0,0,0,TRUE,10000,TRUE,100
 03/02/2022 17:50:01.900,7,0,TRUE,1.366103801,103.9118908,TRUE,23.07307547,TRUE,0,0,0,TRUE,10000,TRUE,100
 03/02/2022 17:50:01.910,7,0,TRUE,1.366125821,103.9119001,TRUE,23.07307569,TRUE,0,0,0,TRUE,10000,TRUE,100
 03/02/2022 17:50:01.920,7,0,TRUE,1.366147841,103.9119094,TRUE,23.07307592,TRUE,0,0,0,TRUE,10000,TRUE,100
 03/02/2022 17:50:01.930,7,0,TRUE,1.366169861,103.9119188,TRUE,23.07307614,TRUE,0,0,0,TRUE,10000,TRUE,100
 03/02/2022 17:50:01.940,7,0,TRUE,1.366191881,103.9119281,TRUE,23.07307636,TRUE,0,0,0,TRUE,10000,TRUE,100
 03/02/2022 17:50:01.950,7,0,TRUE,1.366213901,103.9119374,TRUE,23.07307658,TRUE,0,0,0,TRUE,10000,TRUE,100
 03/02/2022 17:50:01.960,7,0,TRUE,1.366235921,103.9119467,TRUE,23.07307679,TRUE,0,0,0,TRUE,10000,TRUE,100
 03/02/2022 17:50:01.970,7,0,TRUE,1.366257941,103.911956,TRUE,23.07307703,TRUE,0,0,0,TRUE,10000,TRUE,100
 03/02/2022 17:50:01.980,7,0,TRUE,1.366279961,103.9119654,TRUE,23.07307724,TRUE,0,0,0,TRUE,10000,TRUE,100
 03/02/2022 17:50:01.990,7,0,TRUE,1.366301981,103.9119747,TRUE,23.07307748,TRUE,0,0,0,TRUE,10000,TRUE,100
 03/02/2022 17:50:02.000,7,0,TRUE,1.366324001,103.911984,TRUE,23.07307769,TRUE,0,0,0,TRUE,10000,TRUE,100
 03/02/2022 17:50:02.001,7,0,TRUE,1.366346021,103.9119933,TRUE,23.07307792,TRUE,0,0,0,TRUE,10000,TRUE,100
 03/02/2022 17:50:02.002,7,0,TRUE,1.366368041,103.9120026,TRUE,23.07307814,TRUE,0,0,0,TRUE,10000,TRUE,100
 03/02/2022 17:50:02.003,7,0,TRUE,1.366390061,103.912012,TRUE,23.07307836,TRUE,0,0,0,TRUE,10000,TRUE,100
 03/02/2022 17:50:02.004,7,0,TRUE,1.366412081,103.9120213,TRUE,23.07307857,TRUE,0,0,0,TRUE,10000,TRUE,100
 03/02/2022 17:50:02.005,7,0,TRUE,1.366434101,103.9120306,TRUE,23.0730788,TRUE,0,0,0,TRUE,10000,TRUE,100
 03/02/2022 17:50:02.006,7,0,TRUE,1.366456121,103.9120399,TRUE,23.07307902,TRUE,0,0,0,TRUE,10000,TRUE,100
 03/02/2022 17:50:02.007,7,0,TRUE,1.366478141,103.9120492,TRUE,23.07307924,TRUE,0,0,0,TRUE,10000,TRUE,100
 03/02/2022 17:50:02.008,7,0,TRUE,1.366500161,103.9120586,TRUE,23.07307947,TRUE,0,0,0,TRUE,10000,TRUE,100
 03/02/2022 17:50:02.009,7,0,TRUE,1.366522181,103.9120679,TRUE,23.07307969,TRUE,0,0,0,TRUE,10000,TRUE,100
 03/02/2022 17:50:02.010,7,0,TRUE,1.366544201,103.9120772,TRUE,23.07307991,TRUE,0,0,0,TRUE,10000,TRUE,100
 03/02/2022 17:50:02.011,7,0,TRUE,1.366566221,103.9120865,TRUE,23.07308014,TRUE,0,0,0,TRUE,10000,TRUE,100
 03/02/2022 17:50:02.012,7,0,TRUE,1.366588241,103.9120958,TRUE,23.07308036,TRUE,0,0,0,TRUE,10000,TRUE,100
 03/02/2022 17:50:02.013,7,0,TRUE,1.366610261,103.9121052,TRUE,23.07308058,TRUE,0,0,0,TRUE,10000,TRUE,100
 03/02/2022 17:50:02.014,7,0,TRUE,1.366632281,103.9121145,TRUE,23.07308079,TRUE,0,0,0,TRUE,10000,TRUE,100
 03/02/2022 17:50:02.015,7,0,TRUE,1.366654301,103.9121238,TRUE,23.07308102,TRUE,0,0,0,TRUE,10000,TRUE,100
 03/02/2022 17:50:02.016,7,0,TRUE,1.366676321,103.9121331,TRUE,23.07308124,TRUE,0,0,0,TRUE,10000,TRUE,100
 03/02/2022 17:50:02.017,7,0,TRUE,1.366698341,103.9121424,TRUE,23.07308148,TRUE,0,0,0,TRUE,10000,TRUE,100
 03/02/2022 17:50:02.018,7,0,TRUE,1.366720361,103.9121518,TRUE,23.07308169,TRUE,0,0,0,TRUE,10000,TRUE,100
 03/02/2022 17:50:02.019,7,0,TRUE,1.366742381,103.9121611,TRUE,23.07308191,TRUE,0,0,0,TRUE,10000,TRUE,100
 03/02/2022 17:50:02.020,7,0,TRUE,1.366764401,103.9121704,TRUE,23.07308213,TRUE,0,0,0,TRUE,10000,TRUE,100
 03/02/2022 17:50:02.021,7,0,TRUE,1.366786421,103.9121797,TRUE,23.07308236,TRUE,0,0,0,TRUE,10000,TRUE,100
 03/02/2022 17:50:02.022,7,0,TRUE,1.366808441,103.912189,TRUE,23.07308257,TRUE,0,0,0,TRUE,10000,TRUE,100
 03/02/2022 17:50:02.023,7,0,TRUE,1.366830461,103.9121984,TRUE,23.0730828,TRUE,0,0,0,TRUE,10000,TRUE,100
 03/02/2022 17:50:02.024,7,0,TRUE,1.366852481,103.9122077,TRUE,23.07308302,TRUE,0,0,0,TRUE,10000,TRUE,100
 03/02/2022 17:50:02.025,7,0,TRUE,1.366874501,103.912217,TRUE,23.07308325,TRUE,0,0,0,TRUE,10000,TRUE,100
 03/02/2022 17:50:02.026,7,0,TRUE,1.366896521,103.9122263,TRUE,23.07308347,TRUE,0,0,0,TRUE,10000,TRUE,100
 03/02/2022 17:50:02.027,7,0,TRUE,1.366918541,103.9122356,TRUE,23.07308369,TRUE,0,0,0,TRUE,10000,TRUE,100
 03/02/2022 17:50:02.028,7,0,TRUE,1.366940561,103.912245,TRUE,23.07308392,TRUE,0,0,0,TRUE,10000,TRUE,100
 03/02/2022 17:50:02.029,7,0,TRUE,1.366962581,103.9122543,TRUE,23.07308414,TRUE,0,0,0,TRUE,10000,TRUE,100
 03/02/2022 17:50:02.030,7,0,TRUE,1.366984601,103.9122636,TRUE,23.07308436,TRUE,0,0,0,TRUE,10000,TRUE,100
 03/02/2022 17:50:02.031,7,0,TRUE,1.367006621,103.9122729,TRUE,23.07308458,TRUE,0,0,0,TRUE,10000,TRUE,100
 03/02/2022 17:50:02.032,7,0,TRUE,1.367028641,103.9122822,TRUE,23.0730848,TRUE,0,0,0,TRUE,10000,TRUE,100
 03/02/2022 17:50:02.033,7,0,TRUE,1.367050661,103.9122916,TRUE,23.07308502,TRUE,0,0,0,TRUE,10000,TRUE,100
 03/02/2022 17:50:02.034,7,0,TRUE,1.367072681,103.9123009,TRUE,23.07308525,TRUE,0,0,0,TRUE,10000,TRUE,100
 03/02/2022 17:50:02.035,7,0,TRUE,1.367094701,103.9123102,TRUE,23.07308547,TRUE,0,0,0,TRUE,10000,TRUE,100
 03/02/2022 17:50:02.036,7,0,TRUE,1.367116721,103.9123195,TRUE,23.07308569,TRUE,0,0,0,TRUE,10000,TRUE,100
 03/02/2022 17:50:02.037,7,0,TRUE,1.367138741,103.9123288,TRUE,23.07308591,TRUE,0,0,0,TRUE,10000,TRUE,100
 03/02/2022 17:50:02.038,7,0,TRUE,1.367160761,103.9123382,TRUE,23.07308614,TRUE,0,0,0,TRUE,10000,TRUE,100
 03/02/2022 17:50:02.039,7,0,TRUE,1.367182781,103.9123475,TRUE,23.07308635,TRUE,0,0,0,TRUE,10000,TRUE,100
 03/02/2022 17:50:02.040,7,0,TRUE,1.367204801,103.9123568,TRUE,23.07308659,TRUE,0,0,0,TRUE,10000,TRUE,100
 03/02/2022 17:50:02.041,7,0,TRUE,1.367226821,103.9123661,TRUE,23.07308681,TRUE,0,0,0,TRUE,10000,TRUE,100
 03/02/2022 17:50:02.042,7,0,TRUE,1.367248841,103.9123754,TRUE,23.07308702,TRUE,0,0,0,TRUE,10000,TRUE,100
 03/02/2022 17:50:02.043,7,0,TRUE,1.367270861,103.9123848,TRUE,23.07308725,TRUE,0,0,0,TRUE,10000,TRUE,100
 03/02/2022 17:50:02.044,7,0,TRUE,1.367292881,103.9123941,TRUE,23.07308747,TRUE,0,0,0,TRUE,10000,TRUE,100
 03/02/2022 17:50:02.045,7,0,TRUE,1.367314901,103.9124034,TRUE,23.07308769,TRUE,0,0,0,TRUE,10000,TRUE,100
 03/02/2022 17:50:02.046,7,0,TRUE,1.367336921,103.9124127,TRUE,23.07308791,TRUE,0,0,0,TRUE,10000,TRUE,100
 03/02/2022 17:50:02.047,7,0,TRUE,1.367358941,103.912422,TRUE,23.07308814,TRUE,0,0,0,TRUE,10000,TRUE,100
 03/02/2022 17:50:02.048,7,0,TRUE,1.367380961,103.9124314,TRUE,23.07308835,TRUE,0,0,0,TRUE,10000,TRUE,100
 03/02/2022 17:50:02.049,7,0,TRUE,1.367402981,103.9124407,TRUE,23.07308859,TRUE,0,0,0,TRUE,10000,TRUE,100
 03/02/2022 17:50:02.050,7,0,TRUE,1.367425001,103.91245,TRUE,23.0730888,TRUE,0,0,0,TRUE,10000,TRUE,100
 03/02/2022 17:50:02.051,7,0,TRUE,1.367447021,103.9124593,TRUE,23.07308903,TRUE,0,0,0,TRUE,10000,TRUE,100
 03/02/2022 17:50:02.052,7,0,TRUE,1.367469041,103.9124686,TRUE,23.07308925,TRUE,0,0,0,TRUE,10000,TRUE,100
 03/02/2022 17:50:02.053,7,0,TRUE,1.367491061,103.912478,TRUE,23.07308947,TRUE,0,0,0,TRUE,10000,TRUE,100
 03/02/2022 17:50:02.054,7,0,TRUE,1.367513081,103.9124873,TRUE,23.07308969,TRUE,0,0,0,TRUE,10000,TRUE,100
 03/02/2022 17:50:02.055,7,0,TRUE,1.367535101,103.9124966,TRUE,23.07308992,TRUE,0,0,0,TRUE,10000,TRUE,100
 03/02/2022 17:50:02.056,7,0,TRUE,1.367557121,103.9125059,TRUE,23.07309013,TRUE,0,0,0,TRUE,10000,TRUE,100
 03/02/2022 17:50:02.057,7,0,TRUE,1.367579141,103.9125152,TRUE,23.07309036,TRUE,0,0,0,TRUE,10000,TRUE,100
 03/02/2022 17:50:02.058,7,0,TRUE,1.367601161,103.9125246,TRUE,23.07309059,TRUE,0,0,0,TRUE,10000,TRUE,100
 03/02/2022 17:50:02.059,7,0,TRUE,1.367623181,103.9125339,TRUE,23.07309082,TRUE,0,0,0,TRUE,10000,TRUE,100
 03/02/2022 17:50:02.060,7,0,TRUE,1.367645201,103.9125432,TRUE,23.07309103,TRUE,0,0,0,TRUE,10000,TRUE,100
 03/02/2022 17:50:02.061,7,0,TRUE,1.367667221,103.9125525,TRUE,23.07309126,TRUE,0,0,0,TRUE,10000,TRUE,100
 03/02/2022 17:50:02.062,7,0,TRUE,1.367689241,103.9125618,TRUE,23.07309148,TRUE,0,0,0,TRUE,10000,TRUE,100
 03/02/2022 17:50:02.063,7,0,TRUE,1.367711261,103.9125712,TRUE,23.07309169,TRUE,0,0,0,TRUE,10000,TRUE,100
 03/02/2022 17:50:02.064,7,0,TRUE,1.367733281,103.9125805,TRUE,23.07309192,TRUE,0,0,0,TRUE,10000,TRUE,100
 03/02/2022 17:50:02.065,7,0,TRUE,1.367755301,103.9125898,TRUE,23.07309214,TRUE,0,0,0,TRUE,10000,TRUE,100
 03/02/2022 17:50:02.066,7,0,TRUE,1.367777321,103.9125991,TRUE,23.07309237,TRUE,0,0,0,TRUE,10000,TRUE,100
 03/02/2022 17:50:02.067,7,0,TRUE,1.367799341,103.9126084,TRUE,23.0730926,TRUE,0,0,0,TRUE,10000,TRUE,100
 03/02/2022 17:50:02.068,7,0,TRUE,1.367821361,103.9126178,TRUE,23.07309281,TRUE,0,0,0,TRUE,10000,TRUE,100
 03/02/2022 17:50:02.069,7,0,TRUE,1.367843381,103.9126271,TRUE,23.07309304,TRUE,0,0,0,TRUE,10000,TRUE,100
 03/02/2022 17:50:02.070,7,0,TRUE,1.367865401,103.9126364,TRUE,23.07309326,TRUE,0,0,0,TRUE,10000,TRUE,100
 03/02/2022 17:50:02.071,7,0,TRUE,1.367887421,103.9126457,TRUE,23.07309348,TRUE,0,0,0,TRUE,10000,TRUE,100
 03/02/2022 17:50:02.072,7,0,TRUE,1.367909441,103.912655,TRUE,23.0730937,TRUE,0,0,0,TRUE,10000,TRUE,100
 03/02/2022 17:50:02.073,7,0,TRUE,1.367931461,103.9126644,TRUE,23.07309392,TRUE,0,0,0,TRUE,10000,TRUE,100
 03/02/2022 17:50:02.074,7,0,TRUE,1.367953481,103.9126737,TRUE,23.07309414,TRUE,0,0,0,TRUE,10000,TRUE,100
 03/02/2022 17:50:02.075,7,0,TRUE,1.367975501,103.912683,TRUE,23.07309437,TRUE,0,0,0,TRUE,10000,TRUE,100
 03/02/2022 17:50:02.076,7,0,TRUE,1.367997521,103.9126923,TRUE,23.07309459,TRUE,0,0,0,TRUE,10000,TRUE,100
 03/02/2022 17:50:02.077,7,0,TRUE,1.368019541,103.9127016,TRUE,23.07309482,TRUE,0,0,0,TRUE,10000,TRUE,100
 03/02/2022 17:50:02.078,7,0,TRUE,1.368041561,103.912711,TRUE,23.07309504,TRUE,0,0,0,TRUE,10000,TRUE,100
 03/02/2022 17:50:02.079,7,0,TRUE,1.368063581,103.9127203,TRUE,23.07309526,TRUE,0,0,0,TRUE,10000,TRUE,100
 03/02/2022 17:50:02.080,7,0,TRUE,1.368085601,103.9127296,TRUE,23.07309548,TRUE,0,0,0,TRUE,10000,TRUE,100
 03/02/2022 17:50:02.081,7,0,TRUE,1.368107621,103.9127389,TRUE,23.0730957,TRUE,0,0,0,TRUE,10000,TRUE,100
 03/02/2022 17:50:02.082,7,0,TRUE,1.368129641,103.9127482,TRUE,23.07309592,TRUE,0,0,0,TRUE,10000,TRUE,100
 03/02/2022 17:50:02.083,7,0,TRUE,1.368151661,103.9127576,TRUE,23.07309615,TRUE,0,0,0,TRUE,10000,TRUE,100
 03/02/2022 17:50:02.084,7,0,TRUE,1.368173681,103.9127669,TRUE,23.07309637,TRUE,0,0,0,TRUE,10000,TRUE,100
 03/02/2022 17:50:02.085,7,0,TRUE,1.368195701,103.9127762,TRUE,23.0730966,TRUE,0,0,0,TRUE,10000,TRUE,100
 03/02/2022 17:50:02.086,7,0,TRUE,1.368217721,103.9127855,TRUE,23.07309681,TRUE,0,0,0,TRUE,10000,TRUE,100
 03/02/2022 17:50:02.087,7,0,TRUE,1.368239741,103.9127948,TRUE,23.07309704,TRUE,0,0,0,TRUE,10000,TRUE,100
 03/02/2022 17:50:02.088,7,0,TRUE,1.368261761,103.9128042,TRUE,23.07309726,TRUE,0,0,0,TRUE,10000,TRUE,100
 03/02/2022 17:50:02.089,7,0,TRUE,1.368283781,103.9128135,TRUE,23.07309748,TRUE,0,0,0,TRUE,10000,TRUE,100
 03/02/2022 17:50:02.090,7,0,TRUE,1.368305801,103.9128228,TRUE,23.0730977,TRUE,0,0,0,TRUE,10000,TRUE,100
 03/02/2022 17:50:02.091,7,0,TRUE,1.368327821,103.9128321,TRUE,23.07309793,TRUE,0,0,0,TRUE,10000,TRUE,100
 03/02/2022 17:50:02.092,7,0,TRUE,1.368349841,103.9128414,TRUE,23.07309815,TRUE,0,0,0,TRUE,10000,TRUE,100
 03/02/2022 17:50:02.093,7,0,TRUE,1.368371861,103.9128508,TRUE,23.07309838,TRUE,0,0,0,TRUE,10000,TRUE,100
 03/02/2022 17:50:02.094,7,0,TRUE,1.368393881,103.9128601,TRUE,23.0730986,TRUE,0,0,0,TRUE,10000,TRUE,100
 03/02/2022 17:50:02.095,7,0,TRUE,1.368415901,103.9128694,TRUE,23.07309883,TRUE,0,0,0,TRUE,10000,TRUE,100
 03/02/2022 17:50:02.096,7,0,TRUE,1.368437921,103.9128787,TRUE,23.07309904,TRUE,0,0,0,TRUE,10000,TRUE,100
 03/02/2022 17:50:02.097,7,0,TRUE,1.368459941,103.912888,TRUE,23.07309927,TRUE,0,0,0,TRUE,10000,TRUE,100
 03/02/2022 17:50:02.098,7,0,TRUE,1.368481961,103.9128974,TRUE,23.07309949,TRUE,0,0,0,TRUE,10000,TRUE,100
 03/02/2022 17:50:02.099,7,0,TRUE,1.368503981,103.9129067,TRUE,23.07309971,TRUE,0,0,0,TRUE,10000,TRUE,100
 03/02/2022 17:50:02.100,7,0,TRUE,1.368526001,103.912916,TRUE,23.07309992,TRUE,0,0,0,TRUE,10000,TRUE,100
 03/02/2022 17:50:02.101,7,0,TRUE,1.368548021,103.9129253,TRUE,23.07310016,TRUE,0,0,0,TRUE,10000,TRUE,100
 03/02/2022 17:50:02.102,7,0,TRUE,1.368570041,103.9129346,TRUE,23.07310038,TRUE,0,0,0,TRUE,10000,TRUE,100
 03/02/2022 17:50:02.103,7,0,TRUE,1.368592061,103.912944,TRUE,23.0731006,TRUE,0,0,0,TRUE,10000,TRUE,100
 03/02/2022 17:50:02.104,7,0,TRUE,1.368614081,103.9129533,TRUE,23.07310082,TRUE,0,0,0,TRUE,10000,TRUE,100
 03/02/2022 17:50:02.105,7,0,TRUE,1.368636101,103.9129626,TRUE,23.07310104,TRUE,0,0,0,TRUE,10000,TRUE,100
 03/02/2022 17:50:02.106,7,0,TRUE,1.368658121,103.9129719,TRUE,23.07310126,TRUE,0,0,0,TRUE,10000,TRUE,100
 03/02/2022 17:50:02.107,7,0,TRUE,1.368680141,103.9129812,TRUE,23.07310149,TRUE,0,0,0,TRUE,10000,TRUE,100
 03/02/2022 17:50:02.108,7,0,TRUE,1.368702161,103.9129906,TRUE,23.07310172,TRUE,0,0,0,TRUE,10000,TRUE,100
 03/02/2022 17:50:02.109,7,0,TRUE,1.368724181,103.9129999,TRUE,23.07310193,TRUE,0,0,0,TRUE,10000,TRUE,100
 03/02/2022 17:50:02.110,7,0,TRUE,1.368746201,103.9130092,TRUE,23.07310216,TRUE,0,0,0,TRUE,10000,TRUE,100
 03/02/2022 17:50:02.111,7,0,TRUE,1.368768221,103.9130185,TRUE,23.07310238,TRUE,0,0,0,TRUE,10000,TRUE,100
 03/02/2022 17:50:02.112,7,0,TRUE,1.368790241,103.9130278,TRUE,23.07310261,TRUE,0,0,0,TRUE,10000,TRUE,100
 03/02/2022 17:50:02.113,7,0,TRUE,1.368812261,103.9130372,TRUE,23.07310282,TRUE,0,0,0,TRUE,10000,TRUE,100
 03/02/2022 17:50:02.114,7,0,TRUE,1.368834281,103.9130465,TRUE,23.07310305,TRUE,0,0,0,TRUE,10000,TRUE,100
 03/02/2022 17:50:02.115,7,0,TRUE,1.368856301,103.9130558,TRUE,23.07310327,TRUE,0,0,0,TRUE,10000,TRUE,100
 03/02/2022 17:50:02.116,7,0,TRUE,1.368878321,103.9130651,TRUE,23.07310349,TRUE,0,0,0,TRUE,10000,TRUE,100
 03/02/2022 17:50:02.117,7,0,TRUE,1.368900341,103.9130744,TRUE,23.07310371,TRUE,0,0,0,TRUE,10000,TRUE,100
 03/02/2022 17:50:02.118,7,0,TRUE,1.368922361,103.9130838,TRUE,23.07310394,TRUE,0,0,0,TRUE,10000,TRUE,100
 03/02/2022 17:50:02.119,7,0,TRUE,1.368944381,103.9130931,TRUE,23.07310416,TRUE,0,0,0,TRUE,10000,TRUE,100
 03/02/2022 17:50:02.120,7,0,TRUE,1.368966401,103.9131024,TRUE,23.07310439,TRUE,0,0,0,TRUE,10000,TRUE,100
 03/02/2022 17:50:02.121,7,0,TRUE,1.368988421,103.9131117,TRUE,23.07310461,TRUE,0,0,0,TRUE,10000,TRUE,100
 03/02/2022 17:50:02.122,7,0,TRUE,1.369010441,103.913121,TRUE,23.07310483,TRUE,0,0,0,TRUE,10000,TRUE,100
 03/02/2022 17:50:02.123,7,0,TRUE,1.369032461,103.9131304,TRUE,23.07310505,TRUE,0,0,0,TRUE,10000,TRUE,100
 03/02/2022 17:50:02.124,7,0,TRUE,1.369054481,103.9131397,TRUE,23.07310527,TRUE,0,0,0,TRUE,10000,TRUE,100
 03/02/2022 17:50:02.125,7,0,TRUE,1.369076501,103.913149,TRUE,23.07310549,TRUE,0,0,0,TRUE,10000,TRUE,100
 03/02/2022 17:50:02.126,7,0,TRUE,1.369098521,103.9131583,TRUE,23.07310572,TRUE,0,0,0,TRUE,10000,TRUE,100
 03/02/2022 17:50:02.127,7,0,TRUE,1.369120541,103.9131676,TRUE,23.07310595,TRUE,0,0,0,TRUE,10000,TRUE,100
 03/02/2022 17:50:02.128,7,0,TRUE,1.369142561,103.913177,TRUE,23.07310617,TRUE,0,0,0,TRUE,10000,TRUE,100
 03/02/2022 17:50:02.129,7,0,TRUE,1.369164581,103.9131863,TRUE,23.07310639,TRUE,0,0,0,TRUE,10000,TRUE,100
 03/02/2022 17:50:02.130,7,0,TRUE,1.369186601,103.9131956,TRUE,23.07310662,TRUE,0,0,0,TRUE,10000,TRUE,100
 03/02/2022 17:50:02.131,7,0,TRUE,1.369208621,103.9132049,TRUE,23.07310683,TRUE,0,0,0,TRUE,10000,TRUE,100
 03/02/2022 17:50:02.132,7,0,TRUE,1.369230641,103.9132142,TRUE,23.07310705,TRUE,0,0,0,TRUE,10000,TRUE,100
 03/02/2022 17:50:02.133,7,0,TRUE,1.369252661,103.9132236,TRUE,23.07310728,TRUE,0,0,0,TRUE,10000,TRUE,100
 03/02/2022 17:50:02.134,7,0,TRUE,1.369274681,103.9132329,TRUE,23.0731075,TRUE,0,0,0,TRUE,10000,TRUE,100
 03/02/2022 17:50:02.135,7,0,TRUE,1.369296701,103.9132422,TRUE,23.07310772,TRUE,0,0,0,TRUE,10000,TRUE,100
 03/02/2022 17:50:02.136,7,0,TRUE,1.369318721,103.9132515,TRUE,23.07310794,TRUE,0,0,0,TRUE,10000,TRUE,100
 03/02/2022 17:50:02.137,7,0,TRUE,1.369340741,103.9132608,TRUE,23.07310817,TRUE,0,0,0,TRUE,10000,TRUE,100
 03/02/2022 17:50:02.138,7,0,TRUE,1.369362761,103.9132702,TRUE,23.0731084,TRUE,0,0,0,TRUE,10000,TRUE,100
 03/02/2022 17:50:02.139,7,0,TRUE,1.369384781,103.9132795,TRUE,23.07310861,TRUE,0,0,0,TRUE,10000,TRUE,100
 03/02/2022 17:50:02.140,7,0,TRUE,1.369406801,103.9132888,TRUE,23.07310884,TRUE,0,0,0,TRUE,10000,TRUE,100
 03/02/2022 17:50:02.141,7,0,TRUE,1.369428821,103.9132981,TRUE,23.07310906,TRUE,0,0,0,TRUE,10000,TRUE,100
 03/02/2022 17:50:02.142,7,0,TRUE,1.369450841,103.9133074,TRUE,23.07310928,TRUE,0,0,0,TRUE,10000,TRUE,100
 03/02/2022 17:50:02.143,7,0,TRUE,1.369472861,103.9133168,TRUE,23.07310951,TRUE,0,0,0,TRUE,10000,TRUE,100
 03/02/2022 17:50:02.144,7,0,TRUE,1.369494881,103.9133261,TRUE,23.07310973,TRUE,0,0,0,TRUE,10000,TRUE,100
 03/02/2022 17:50:02.145,7,0,TRUE,1.369516901,103.9133354,TRUE,23.07310995,TRUE,0,0,0,TRUE,10000,TRUE,100
 03/02/2022 17:50:02.146,7,0,TRUE,1.369538921,103.9133447,TRUE,23.07311018,TRUE,0,0,0,TRUE,10000,TRUE,100
 03/02/2022 17:50:02.147,7,0,TRUE,1.369560941,103.913354,TRUE,23.0731104,TRUE,0,0,0,TRUE,10000,TRUE,100
 03/02/2022 17:50:02.148,7,0,TRUE,1.369582961,103.9133634,TRUE,23.07311062,TRUE,0,0,0,TRUE,10000,TRUE,100
 03/02/2022 17:50:02.149,7,0,TRUE,1.369604981,103.9133727,TRUE,23.07311084,TRUE,0,0,0,TRUE,10000,TRUE,100
 03/02/2022 17:50:02.150,7,0,TRUE,1.369627001,103.913382,TRUE,23.07311106,TRUE,0,0,0,TRUE,10000,TRUE,100
 03/02/2022 17:50:02.151,7,0,TRUE,1.369649021,103.9133913,TRUE,23.07311128,TRUE,0,0,0,TRUE,10000,TRUE,100
 03/02/2022 17:50:02.152,7,0,TRUE,1.369671041,103.9134006,TRUE,23.07311151,TRUE,0,0,0,TRUE,10000,TRUE,100
 03/02/2022 17:50:02.153,7,0,TRUE,1.369693061,103.91341,TRUE,23.07311174,TRUE,0,0,0,TRUE,10000,TRUE,100
 03/02/2022 17:50:02.154,7,0,TRUE,1.369715081,103.9134193,TRUE,23.07311196,TRUE,0,0,0,TRUE,10000,TRUE,100
 03/02/2022 17:50:02.155,7,0,TRUE,1.369737101,103.9134286,TRUE,23.07311218,TRUE,0,0,0,TRUE,10000,TRUE,100
 03/02/2022 17:50:02.156,7,0,TRUE,1.369759121,103.9134379,TRUE,23.0731124,TRUE,0,0,0,TRUE,10000,TRUE,100
 03/02/2022 17:50:02.157,7,0,TRUE,1.369781141,103.9134472,TRUE,23.07311263,TRUE,0,0,0,TRUE,10000,TRUE,100
 03/02/2022 17:50:02.158,7,0,TRUE,1.369803161,103.9134566,TRUE,23.07311285,TRUE,0,0,0,TRUE,10000,TRUE,100
 03/02/2022 17:50:02.159,7,0,TRUE,1.369825181,103.9134659,TRUE,23.07311307,TRUE,0,0,0,TRUE,10000,TRUE,100
 03/02/2022 17:50:02.160,7,0,TRUE,1.369847201,103.9134752,TRUE,23.07311329,TRUE,0,0,0,TRUE,10000,TRUE,100
 03/02/2022 17:50:02.161,7,0,TRUE,1.369869221,103.9134845,TRUE,23.07311352,TRUE,0,0,0,TRUE,10000,TRUE,100
 03/02/2022 17:50:02.162,7,0,TRUE,1.369891241,103.9134938,TRUE,23.07311374,TRUE,0,0,0,TRUE,10000,TRUE,100
 03/02/2022 17:50:02.163,7,0,TRUE,1.369913261,103.9135032,TRUE,23.07311396,TRUE,0,0,0,TRUE,10000,TRUE,100
 03/02/2022 17:50:02.164,7,0,TRUE,1.369935281,103.9135125,TRUE,23.07311418,TRUE,0,0,0,TRUE,10000,TRUE,100
 03/02/2022 17:50:02.165,7,0,TRUE,1.369957301,103.9135218,TRUE,23.07311442,TRUE,0,0,0,TRUE,10000,TRUE,100
 03/02/2022 17:50:02.166,7,0,TRUE,1.369979321,103.9135311,TRUE,23.07311463,TRUE,0,0,0,TRUE,10000,TRUE,100
 03/02/2022 17:50:02.167,7,0,TRUE,1.370001341,103.9135404,TRUE,23.07311485,TRUE,0,0,0,TRUE,10000,TRUE,100
 03/02/2022 17:50:02.168,7,0,TRUE,1.370023361,103.9135498,TRUE,23.07311508,TRUE,0,0,0,TRUE,10000,TRUE,100
 03/02/2022 17:50:02.169,7,0,TRUE,1.370045381,103.9135591,TRUE,23.07311531,TRUE,0,0,0,TRUE,10000,TRUE,100
 03/02/2022 17:50:02.170,7,0,TRUE,1.370067401,103.9135684,TRUE,23.07311552,TRUE,0,0,0,TRUE,10000,TRUE,100
 03/02/2022 17:50:02.171,7,0,TRUE,1.370089421,103.9135777,TRUE,23.07311574,TRUE,0,0,0,TRUE,10000,TRUE,100
 03/02/2022 17:50:02.172,7,0,TRUE,1.370111441,103.913587,TRUE,23.07311597,TRUE,0,0,0,TRUE,10000,TRUE,100
 03/02/2022 17:50:02.173,7,0,TRUE,1.370133461,103.9135964,TRUE,23.07311619,TRUE,0,0,0,TRUE,10000,TRUE,100
 03/02/2022 17:50:02.174,7,0,TRUE,1.370155481,103.9136057,TRUE,23.07311642,TRUE,0,0,0,TRUE,10000,TRUE,100
 03/02/2022 17:50:02.175,7,0,TRUE,1.370177501,103.913615,TRUE,23.07311663,TRUE,0,0,0,TRUE,10000,TRUE,100
 03/02/2022 17:50:02.176,7,0,TRUE,1.370199521,103.9136243,TRUE,23.07311686,TRUE,0,0,0,TRUE,10000,TRUE,100
 03/02/2022 17:50:02.177,7,0,TRUE,1.370221541,103.9136336,TRUE,23.07311708,TRUE,0,0,0,TRUE,10000,TRUE,100
 03/02/2022 17:50:02.178,7,0,TRUE,1.370243561,103.913643,TRUE,23.07311731,TRUE,0,0,0,TRUE,10000,TRUE,100
 03/02/2022 17:50:02.179,7,0,TRUE,1.370265581,103.9136523,TRUE,23.07311753,TRUE,0,0,0,TRUE,10000,TRUE,100
 03/02/2022 17:50:02.180,7,0,TRUE,1.370287601,103.9136616,TRUE,23.07311775,TRUE,0,0,0,TRUE,10000,TRUE,100
 03/02/2022 17:50:02.181,7,0,TRUE,1.370309621,103.9136709,TRUE,23.07311798,TRUE,0,0,0,TRUE,10000,TRUE,100
 03/02/2022 17:50:02.182,7,0,TRUE,1.370331641,103.9136802,TRUE,23.07311819,TRUE,0,0,0,TRUE,10000,TRUE,100
 03/02/2022 17:50:02.183,7,0,TRUE,1.370353661,103.9136896,TRUE,23.07311842,TRUE,0,0,0,TRUE,10000,TRUE,100
 03/02/2022 17:50:02.184,7,0,TRUE,1.370375681,103.9136989,TRUE,23.07311864,TRUE,0,0,0,TRUE,10000,TRUE,100
 03/02/2022 17:50:02.185,7,0,TRUE,1.370397701,103.9137082,TRUE,23.07311887,TRUE,0,0,0,TRUE,10000,TRUE,100
 03/02/2022 17:50:02.186,7,0,TRUE,1.370419721,103.9137175,TRUE,23.0731191,TRUE,0,0,0,TRUE,10000,TRUE,100
 03/02/2022 17:50:02.187,7,0,TRUE,1.370441741,103.9137268,TRUE,23.07311931,TRUE,0,0,0,TRUE,10000,TRUE,100
 03/02/2022 17:50:02.188,7,0,TRUE,1.370463761,103.9137362,TRUE,23.07311953,TRUE,0,0,0,TRUE,10000,TRUE,100
 03/02/2022 17:50:02.189,7,0,TRUE,1.370485781,103.9137455,TRUE,23.07311976,TRUE,0,0,0,TRUE,10000,TRUE,100
 03/02/2022 17:50:02.190,7,0,TRUE,1.370507801,103.9137548,TRUE,23.07311998,TRUE,0,0,0,TRUE,10000,TRUE,100
 03/02/2022 17:50:02.191,7,0,TRUE,1.370529821,103.9137641,TRUE,23.07312019,TRUE,0,0,0,TRUE,10000,TRUE,100
 03/02/2022 17:50:02.192,7,0,TRUE,1.370551841,103.9137734,TRUE,23.07312042,TRUE,0,0,0,TRUE,10000,TRUE,100
 03/02/2022 17:50:02.193,7,0,TRUE,1.370573861,103.9137828,TRUE,23.07312065,TRUE,0,0,0,TRUE,10000,TRUE,100
 03/02/2022 17:50:02.194,7,0,TRUE,1.370595881,103.9137921,TRUE,23.07312087,TRUE,0,0,0,TRUE,10000,TRUE,100
 03/02/2022 17:50:02.195,7,0,TRUE,1.370617901,103.9138014,TRUE,23.07312109,TRUE,0,0,0,TRUE,10000,TRUE,100
 03/02/2022 17:50:02.196,7,0,TRUE,1.370639921,103.9138107,TRUE,23.07312132,TRUE,0,0,0,TRUE,10000,TRUE,100
 03/02/2022 17:50:02.197,7,0,TRUE,1.370661941,103.91382,TRUE,23.07312155,TRUE,0,0,0,TRUE,10000,TRUE,100
 03/02/2022 17:50:02.198,7,0,TRUE,1.370683961,103.9138294,TRUE,23.07312177,TRUE,0,0,0,TRUE,10000,TRUE,100
 03/02/2022 17:50:02.199,7,0,TRUE,1.370705981,103.9138387,TRUE,23.07312198,TRUE,0,0,0,TRUE,10000,TRUE,100
 03/02/2022 17:50:02.200,7,0,TRUE,1.370728001,103.913848,TRUE,23.0731222,TRUE,0,0,0,TRUE,10000,TRUE,100
 03/02/2022 17:50:02.201,7,0,TRUE,1.370750021,103.9138573,TRUE,23.07312243,TRUE,0,0,0,TRUE,10000,TRUE,100
 03/02/2022 17:50:02.202,7,0,TRUE,1.370772041,103.9138666,TRUE,23.07312266,TRUE,0,0,0,TRUE,10000,TRUE,100
 03/02/2022 17:50:02.203,7,0,TRUE,1.370794061,103.913876,TRUE,23.07312288,TRUE,0,0,0,TRUE,10000,TRUE,100
 03/02/2022 17:50:02.204,7,0,TRUE,1.370816081,103.9138853,TRUE,23.0731231,TRUE,0,0,0,TRUE,10000,TRUE,100
 03/02/2022 17:50:02.205,7,0,TRUE,1.370838101,103.9138946,TRUE,23.07312333,TRUE,0,0,0,TRUE,10000,TRUE,100
 03/02/2022 17:50:02.206,7,0,TRUE,1.370860121,103.9139039,TRUE,23.07312355,TRUE,0,0,0,TRUE,10000,TRUE,100
 03/02/2022 17:50:02.207,7,0,TRUE,1.370882141,103.9139132,TRUE,23.07312377,TRUE,0,0,0,TRUE,10000,TRUE,100
 03/02/2022 17:50:02.208,7,0,TRUE,1.370904161,103.9139226,TRUE,23.07312399,TRUE,0,0,0,TRUE,10000,TRUE,100
 03/02/2022 17:50:02.209,7,0,TRUE,1.370926181,103.9139319,TRUE,23.07312421,TRUE,0,0,0,TRUE,10000,TRUE,100
 03/02/2022 17:50:02.210,7,0,TRUE,1.370948201,103.9139412,TRUE,23.07312445,TRUE,0,0,0,TRUE,10000,TRUE,100
 03/02/2022 17:50:02.211,7,0,TRUE,1.370970221,103.9139505,TRUE,23.07312465,TRUE,0,0,0,TRUE,10000,TRUE,100
 03/02/2022 17:50:02.212,7,0,TRUE,1.370992241,103.9139598,TRUE,23.07312488,TRUE,0,0,0,TRUE,10000,TRUE,100
 03/02/2022 17:50:02.213,7,0,TRUE,1.371014261,103.9139692,TRUE,23.07312511,TRUE,0,0,0,TRUE,10000,TRUE,100
 03/02/2022 17:50:02.214,7,0,TRUE,1.371036281,103.9139785,TRUE,23.07312533,TRUE,0,0,0,TRUE,10000,TRUE,100
 03/02/2022 17:50:02.215,7,0,TRUE,1.371058301,103.9139878,TRUE,23.07312555,TRUE,0,0,0,TRUE,10000,TRUE,100
 03/02/2022 17:50:02.216,7,0,TRUE,1.371080321,103.9139971,TRUE,23.07312577,TRUE,0,0,0,TRUE,10000,TRUE,100
 03/02/2022 17:50:02.217,7,0,TRUE,1.371102341,103.9140064,TRUE,23.073126,TRUE,0,0,0,TRUE,10000,TRUE,100
 03/02/2022 17:50:02.218,7,0,TRUE,1.371124361,103.9140158,TRUE,23.07312623,TRUE,0,0,0,TRUE,10000,TRUE,100
 03/02/2022 17:50:02.219,7,0,TRUE,1.371146381,103.9140251,TRUE,23.07312644,TRUE,0,0,0,TRUE,10000,TRUE,100
 03/02/2022 17:50:02.220,7,0,TRUE,1.371168401,103.9140344,TRUE,23.07312667,TRUE,0,0,0,TRUE,10000,TRUE,100
 03/02/2022 17:50:02.221,7,0,TRUE,1.371190421,103.9140437,TRUE,23.07312689,TRUE,0,0,0,TRUE,10000,TRUE,100
 03/02/2022 17:50:02.222,7,0,TRUE,1.371212441,103.914053,TRUE,23.07312712,TRUE,0,0,0,TRUE,10000,TRUE,100
 03/02/2022 17:50:02.223,7,0,TRUE,1.371234461,103.9140624,TRUE,23.07312734,TRUE,0,0,0,TRUE,10000,TRUE,100
 03/02/2022 17:50:02.224,7,0,TRUE,1.371256481,103.9140717,TRUE,23.07312756,TRUE,0,0,0,TRUE,10000,TRUE,100
 03/02/2022 17:50:02.225,7,0,TRUE,1.371278501,103.914081,TRUE,23.07312779,TRUE,0,0,0,TRUE,10000,TRUE,100
 03/02/2022 17:50:02.226,7,0,TRUE,1.371300521,103.9140903,TRUE,23.07312801,TRUE,0,0,0,TRUE,10000,TRUE,100
 03/02/2022 17:50:02.227,7,0,TRUE,1.371322541,103.9140996,TRUE,23.07312823,TRUE,0,0,0,TRUE,10000,TRUE,100
 03/02/2022 17:50:02.228,7,0,TRUE,1.371344561,103.914109,TRUE,23.07312846,TRUE,0,0,0,TRUE,10000,TRUE,100
 03/02/2022 17:50:02.229,7,0,TRUE,1.371366581,103.9141183,TRUE,23.07312867,TRUE,0,0,0,TRUE,10000,TRUE,100
 03/02/2022 17:50:02.230,7,0,TRUE,1.371388601,103.9141276,TRUE,23.0731289,TRUE,0,0,0,TRUE,10000,TRUE,100
 03/02/2022 17:50:02.231,7,0,TRUE,1.371410621,103.9141369,TRUE,23.07312912,TRUE,0,0,0,TRUE,10000,TRUE,100
 03/02/2022 17:50:02.232,7,0,TRUE,1.371432641,103.9141462,TRUE,23.07312935,TRUE,0,0,0,TRUE,10000,TRUE,100
 03/02/2022 17:50:02.233,7,0,TRUE,1.371454661,103.9141556,TRUE,23.07312957,TRUE,0,0,0,TRUE,10000,TRUE,100
 03/02/2022 17:50:02.234,7,0,TRUE,1.371476681,103.9141649,TRUE,23.07312979,TRUE,0,0,0,TRUE,10000,TRUE,100
 03/02/2022 17:50:02.235,7,0,TRUE,1.371498701,103.9141742,TRUE,23.07313002,TRUE,0,0,0,TRUE,10000,TRUE,100
 03/02/2022 17:50:02.236,7,0,TRUE,1.371520721,103.9141835,TRUE,23.07313024,TRUE,0,0,0,TRUE,10000,TRUE,100
 03/02/2022 17:50:02.237,7,0,TRUE,1.371542741,103.9141928,TRUE,23.07313046,TRUE,0,0,0,TRUE,10000,TRUE,100
 03/02/2022 17:50:02.238,7,0,TRUE,1.371564761,103.9142022,TRUE,23.07313069,TRUE,0,0,0,TRUE,10000,TRUE,100
 03/02/2022 17:50:02.239,7,0,TRUE,1.371586781,103.9142115,TRUE,23.0731309,TRUE,0,0,0,TRUE,10000,TRUE,100
 03/02/2022 17:50:02.240,7,0,TRUE,1.371608801,103.9142208,TRUE,23.07313113,TRUE,0,0,0,TRUE,10000,TRUE,100
 03/02/2022 17:50:02.241,7,0,TRUE,1.371630821,103.9142301,TRUE,23.07313135,TRUE,0,0,0,TRUE,10000,TRUE,100
 03/02/2022 17:50:02.242,7,0,TRUE,1.371652841,103.9142394,TRUE,23.07313158,TRUE,0,0,0,TRUE,10000,TRUE,100
 03/02/2022 17:50:02.243,7,0,TRUE,1.371674861,103.9142488,TRUE,23.0731318,TRUE,0,0,0,TRUE,10000,TRUE,100
 03/02/2022 17:50:02.244,7,0,TRUE,1.371696881,103.9142581,TRUE,23.07313202,TRUE,0,0,0,TRUE,10000,TRUE,100
 03/02/2022 17:50:02.245,7,0,TRUE,1.371718901,103.9142674,TRUE,23.07313225,TRUE,0,0,0,TRUE,10000,TRUE,100
 03/02/2022 17:50:02.246,7,0,TRUE,1.37174092,103.9142767,TRUE,23.07313247,TRUE,0,0,0,TRUE,10000,TRUE,100
 03/02/2022 17:50:02.247,7,0,TRUE,1.37176294,103.914286,TRUE,23.07313269,TRUE,0,0,0,TRUE,10000,TRUE,100
 03/02/2022 17:50:02.248,7,0,TRUE,1.37178496,103.9142954,TRUE,23.07313291,TRUE,0,0,0,TRUE,10000,TRUE,100
 03/02/2022 17:50:02.249,7,0,TRUE,1.37180698,103.9143047,TRUE,23.07313313,TRUE,0,0,0,TRUE,10000,TRUE,100
 03/02/2022 17:50:02.250,7,0,TRUE,1.371829,103.914314,TRUE,23.07313336,TRUE,0,0,0,TRUE,10000,TRUE,100
 03/02/2022 17:50:02.251,7,0,TRUE,1.37185102,103.9143233,TRUE,23.07313358,TRUE,0,0,0,TRUE,10000,TRUE,100
 03/02/2022 17:50:02.252,7,0,TRUE,1.37187304,103.9143326,TRUE,23.07313381,TRUE,0,0,0,TRUE,10000,TRUE,100
 03/02/2022 17:50:02.253,7,0,TRUE,1.37189506,103.914342,TRUE,23.07313403,TRUE,0,0,0,TRUE,10000,TRUE,100
 03/02/2022 17:50:02.254,7,0,TRUE,1.37191708,103.9143513,TRUE,23.07313426,TRUE,0,0,0,TRUE,10000,TRUE,100
 03/02/2022 17:50:02.255,7,0,TRUE,1.3719391,103.9143606,TRUE,23.07313447,TRUE,0,0,0,TRUE,10000,TRUE,100
 03/02/2022 17:50:02.256,7,0,TRUE,1.37196112,103.9143699,TRUE,23.0731347,TRUE,0,0,0,TRUE,10000,TRUE,100
 03/02/2022 17:50:02.257,7,0,TRUE,1.37198314,103.9143792,TRUE,23.07313492,TRUE,0,0,0,TRUE,10000,TRUE,100
 03/02/2022 17:50:02.258,7,0,TRUE,1.37200516,103.9143886,TRUE,23.07313515,TRUE,0,0,0,TRUE,10000,TRUE,100
 03/02/2022 17:50:02.259,7,0,TRUE,1.37202718,103.9143979,TRUE,23.07313537,TRUE,0,0,0,TRUE,10000,TRUE,100
 03/02/2022 17:50:02.260,7,0,TRUE,1.3720492,103.9144072,TRUE,23.07313559,TRUE,0,0,0,TRUE,10000,TRUE,100
 03/02/2022 17:50:02.261,7,0,TRUE,1.37207122,103.9144165,TRUE,23.07313581,TRUE,0,0,0,TRUE,10000,TRUE,100
 03/02/2022 17:50:02.262,7,0,TRUE,1.37209324,103.9144258,TRUE,23.07313604,TRUE,0,0,0,TRUE,10000,TRUE,100
 03/02/2022 17:50:02.263,7,0,TRUE,1.37211526,103.9144352,TRUE,23.07313627,TRUE,0,0,0,TRUE,10000,TRUE,100
 03/02/2022 17:50:02.264,7,0,TRUE,1.37213728,103.9144445,TRUE,23.07313648,TRUE,0,0,0,TRUE,10000,TRUE,100
 03/02/2022 17:50:02.265,7,0,TRUE,1.3721593,103.9144538,TRUE,23.07313671,TRUE,0,0,0,TRUE,10000,TRUE,100
 03/02/2022 17:50:02.266,7,0,TRUE,1.37218132,103.9144631,TRUE,23.07313694,TRUE,0,0,0,TRUE,10000,TRUE,100
 03/02/2022 17:50:02.267,7,0,TRUE,1.37220334,103.9144724,TRUE,23.07313715,TRUE,0,0,0,TRUE,10000,TRUE,100
 03/02/2022 17:50:02.268,7,0,TRUE,1.37222536,103.9144818,TRUE,23.07313738,TRUE,0,0,0,TRUE,10000,TRUE,100
 03/02/2022 17:50:02.269,7,0,TRUE,1.37224738,103.9144911,TRUE,23.07313759,TRUE,0,0,0,TRUE,10000,TRUE,100
 03/02/2022 17:50:02.270,7,0,TRUE,1.3722694,103.9145004,TRUE,23.07313783,TRUE,0,0,0,TRUE,10000,TRUE,100
 03/02/2022 17:50:02.271,7,0,TRUE,1.37229142,103.9145097,TRUE,23.07313805,TRUE,0,0,0,TRUE,10000,TRUE,100
 03/02/2022 17:50:02.272,7,0,TRUE,1.37231344,103.914519,TRUE,23.07313827,TRUE,0,0,0,TRUE,10000,TRUE,100
 03/02/2022 17:50:02.273,7,0,TRUE,1.37233546,103.9145284,TRUE,23.07313849,TRUE,0,0,0,TRUE,10000,TRUE,100
 03/02/2022 17:50:02.274,7,0,TRUE,1.37235748,103.9145377,TRUE,23.07313872,TRUE,0,0,0,TRUE,10000,TRUE,100
 03/02/2022 17:50:02.275,7,0,TRUE,1.3723795,103.914547,TRUE,23.07313894,TRUE,0,0,0,TRUE,10000,TRUE,100
 03/02/2022 17:50:02.276,7,0,TRUE,1.37240152,103.9145563,TRUE,23.07313916,TRUE,0,0,0,TRUE,10000,TRUE,100
 03/02/2022 17:50:02.277,7,0,TRUE,1.37242354,103.9145656,TRUE,23.07313939,TRUE,0,0,0,TRUE,10000,TRUE,100
 03/02/2022 17:50:02.278,7,0,TRUE,1.37244556,103.914575,TRUE,23.07313961,TRUE,0,0,0,TRUE,10000,TRUE,100
 03/02/2022 17:50:02.279,7,0,TRUE,1.37246758,103.9145843,TRUE,23.07313984,TRUE,0,0,0,TRUE,10000,TRUE,100
 03/02/2022 17:50:02.280,7,0,TRUE,1.3724896,103.9145936,TRUE,23.07314006,TRUE,0,0,0,TRUE,10000,TRUE,100
 03/02/2022 17:50:02.281,7,0,TRUE,1.37251162,103.9146029,TRUE,23.07314028,TRUE,0,0,0,TRUE,10000,TRUE,100
 03/02/2022 17:50:02.282,7,0,TRUE,1.37253364,103.9146122,TRUE,23.07314051,TRUE,0,0,0,TRUE,10000,TRUE,100
 03/02/2022 17:50:02.283,7,0,TRUE,1.37255566,103.9146216,TRUE,23.07314073,TRUE,0,0,0,TRUE,10000,TRUE,100
 03/02/2022 17:50:02.284,7,0,TRUE,1.37257768,103.9146309,TRUE,23.07314095,TRUE,0,0,0,TRUE,10000,TRUE,100
 03/02/2022 17:50:02.285,7,0,TRUE,1.3725997,103.9146402,TRUE,23.07314117,TRUE,0,0,0,TRUE,10000,TRUE,100
 03/02/2022 17:50:02.286,7,0,TRUE,1.37262172,103.9146495,TRUE,23.07314139,TRUE,0,0,0,TRUE,10000,TRUE,100
 03/02/2022 17:50:02.287,7,0,TRUE,1.37264374,103.9146588,TRUE,23.07314162,TRUE,0,0,0,TRUE,10000,TRUE,100
 03/02/2022 17:50:02.288,7,0,TRUE,1.37266576,103.9146682,TRUE,23.07314184,TRUE,0,0,0,TRUE,10000,TRUE,100
 03/02/2022 17:50:02.289,7,0,TRUE,1.37268778,103.9146775,TRUE,23.07314206,TRUE,0,0,0,TRUE,10000,TRUE,100
 03/02/2022 17:50:02.290,7,0,TRUE,1.3727098,103.9146868,TRUE,23.07314229,TRUE,0,0,0,TRUE,10000,TRUE,100
 03/02/2022 17:50:02.291,7,0,TRUE,1.37273182,103.9146961,TRUE,23.07314252,TRUE,0,0,0,TRUE,10000,TRUE,100
 03/02/2022 17:50:02.292,7,0,TRUE,1.37275384,103.9147054,TRUE,23.07314273,TRUE,0,0,0,TRUE,10000,TRUE,100
 03/02/2022 17:50:02.293,7,0,TRUE,1.37277586,103.9147148,TRUE,23.07314296,TRUE,0,0,0,TRUE,10000,TRUE,100
 03/02/2022 17:50:02.294,7,0,TRUE,1.37279788,103.9147241,TRUE,23.07314319,TRUE,0,0,0,TRUE,10000,TRUE,100
 03/02/2022 17:50:02.295,7,0,TRUE,1.3728199,103.9147334,TRUE,23.0731434,TRUE,0,0,0,TRUE,10000,TRUE,100
 03/02/2022 17:50:02.296,7,0,TRUE,1.37284192,103.9147427,TRUE,23.07314363,TRUE,0,0,0,TRUE,10000,TRUE,100
 03/02/2022 17:50:02.297,7,0,TRUE,1.37286394,103.914752,TRUE,23.07314385,TRUE,0,0,0,TRUE,10000,TRUE,100
 03/02/2022 17:50:02.298,7,0,TRUE,1.37288596,103.9147614,TRUE,23.07314408,TRUE,0,0,0,TRUE,10000,TRUE,100
 03/02/2022 17:50:02.299,7,0,TRUE,1.37290798,103.9147707,TRUE,25.93439831,TRUE,0,0,0,TRUE,10000,TRUE,100
 03/02/2022 17:50:02.300,7,0,TRUE,1.37293,103.91478,TRUE,25.93439914,TRUE,0,0,0,TRUE,10000,TRUE,100
 03/02/2022 17:50:02.301,7,0,TRUE,1.372991346,103.9148096,TRUE,25.93439988,TRUE,0,0,0,TRUE,10000,TRUE,100
 03/02/2022 17:50:02.302,7,0,TRUE,1.373052692,103.9148393,TRUE,25.93440062,TRUE,0,0,0,TRUE,10000,TRUE,100
 03/02/2022 17:50:02.303,7,0,TRUE,1.373114037,103.9148689,TRUE,25.93440136,TRUE,0,0,0,TRUE,10000,TRUE,100
 03/02/2022 17:50:02.304,7,0,TRUE,1.373175383,103.9148986,TRUE,25.93440209,TRUE,0,0,0,TRUE,10000,TRUE,100
 03/02/2022 17:50:02.305,7,0,TRUE,1.373236729,103.9149282,TRUE,25.93440283,TRUE,0,0,0,TRUE,10000,TRUE,100
 03/02/2022 17:50:02.306,7,0,TRUE,1.373298074,103.9149579,TRUE,25.93440357,TRUE,0,0,0,TRUE,10000,TRUE,100
 03/02/2022 17:50:02.307,7,0,TRUE,1.37335942,103.9149875,TRUE,25.93440431,TRUE,0,0,0,TRUE,10000,TRUE,100
 03/02/2022 17:50:02.308,7,0,TRUE,1.373420766,103.9150171,TRUE,25.93440505,TRUE,0,0,0,TRUE,10000,TRUE,100
 03/02/2022 17:50:02.309,7,0,TRUE,1.373482111,103.9150468,TRUE,25.93440579,TRUE,0,0,0,TRUE,10000,TRUE,100
 03/02/2022 17:50:02.310,7,0,TRUE,1.373543457,103.9150764,TRUE,25.93440653,TRUE,0,0,0,TRUE,10000,TRUE,100
 03/02/2022 17:50:02.311,7,0,TRUE,1.373604803,103.9151061,TRUE,25.93440727,TRUE,0,0,0,TRUE,10000,TRUE,100
 03/02/2022 17:50:02.312,7,0,TRUE,1.373666148,103.9151357,TRUE,25.93440801,TRUE,0,0,0,TRUE,10000,TRUE,100
 03/02/2022 17:50:02.313,7,0,TRUE,1.373727494,103.9151653,TRUE,25.93440875,TRUE,0,0,0,TRUE,10000,TRUE,100
 03/02/2022 17:50:02.314,7,0,TRUE,1.373788839,103.915195,TRUE,25.93440948,TRUE,0,0,0,TRUE,10000,TRUE,100
 03/02/2022 17:50:02.315,7,0,TRUE,1.373850185,103.9152246,TRUE,25.93441022,TRUE,0,0,0,TRUE,10000,TRUE,100
 03/02/2022 17:50:02.316,7,0,TRUE,1.37391153,103.9152543,TRUE,25.93441096,TRUE,0,0,0,TRUE,10000,TRUE,100
 03/02/2022 17:50:02.317,7,0,TRUE,1.373972876,103.9152839,TRUE,25.9344117,TRUE,0,0,0,TRUE,10000,TRUE,100
 03/02/2022 17:50:02.318,7,0,TRUE,1.374034221,103.9153136,TRUE,25.93441244,TRUE,0,0,0,TRUE,10000,TRUE,100
 03/02/2022 17:50:02.319,7,0,TRUE,1.374095566,103.9153432,TRUE,25.93441318,TRUE,0,0,0,TRUE,10000,TRUE,100
 03/02/2022 17:50:02.320,7,0,TRUE,1.374156912,103.9153728,TRUE,25.93441392,TRUE,0,0,0,TRUE,10000,TRUE,100
 03/02/2022 17:50:02.321,7,0,TRUE,1.374218257,103.9154025,TRUE,25.93441466,TRUE,0,0,0,TRUE,10000,TRUE,100
 03/02/2022 17:50:02.322,7,0,TRUE,1.374279602,103.9154321,TRUE,25.93441539,TRUE,0,0,0,TRUE,10000,TRUE,100
 03/02/2022 17:50:02.323,7,0,TRUE,1.374340948,103.9154618,TRUE,25.93441613,TRUE,0,0,0,TRUE,10000,TRUE,100
 03/02/2022 17:50:02.324,7,0,TRUE,1.374402293,103.9154914,TRUE,25.93441687,TRUE,0,0,0,TRUE,10000,TRUE,100
 03/02/2022 17:50:02.325,7,0,TRUE,1.374463638,103.9155211,TRUE,25.93441761,TRUE,0,0,0,TRUE,10000,TRUE,100
 03/02/2022 17:50:02.326,7,0,TRUE,1.374524983,103.9155507,TRUE,25.93441835,TRUE,0,0,0,TRUE,10000,TRUE,100
 03/02/2022 17:50:02.327,7,0,TRUE,1.374586329,103.9155803,TRUE,25.93441909,TRUE,0,0,0,TRUE,10000,TRUE,100
 03/02/2022 17:50:02.328,7,0,TRUE,1.374647674,103.91561,TRUE,25.93441983,TRUE,0,0,0,TRUE,10000,TRUE,100
 03/02/2022 17:50:02.329,7,0,TRUE,1.374709019,103.9156396,TRUE,25.93442057,TRUE,0,0,0,TRUE,10000,TRUE,100
 03/02/2022 17:50:02.330,7,0,TRUE,1.374770364,103.9156693,TRUE,25.93442131,TRUE,0,0,0,TRUE,10000,TRUE,100
 03/02/2022 17:50:02.331,7,0,TRUE,1.374831709,103.9156989,TRUE,25.93442205,TRUE,0,0,0,TRUE,10000,TRUE,100
 03/02/2022 17:50:02.332,7,0,TRUE,1.374893054,103.9157286,TRUE,25.93442279,TRUE,0,0,0,TRUE,10000,TRUE,100
 03/02/2022 17:50:02.333,7,0,TRUE,1.374954399,103.9157582,TRUE,25.93442353,TRUE,0,0,0,TRUE,10000,TRUE,100
 03/02/2022 17:50:02.334,7,0,TRUE,1.375015744,103.9157878,TRUE,25.93442427,TRUE,0,0,0,TRUE,10000,TRUE,100
 03/02/2022 17:50:02.335,7,0,TRUE,1.375077089,103.9158175,TRUE,25.93442501,TRUE,0,0,0,TRUE,10000,TRUE,100
 03/02/2022 17:50:02.336,7,0,TRUE,1.375138434,103.9158471,TRUE,25.93442575,TRUE,0,0,0,TRUE,10000,TRUE,100
 03/02/2022 17:50:02.337,7,0,TRUE,1.375199779,103.9158768,TRUE,25.93442649,TRUE,0,0,0,TRUE,10000,TRUE,100
 03/02/2022 17:50:02.338,7,0,TRUE,1.375261124,103.9159064,TRUE,25.93442723,TRUE,0,0,0,TRUE,10000,TRUE,100
 03/02/2022 17:50:02.339,7,0,TRUE,1.375322469,103.915936,TRUE,25.93442796,TRUE,0,0,0,TRUE,10000,TRUE,100
 03/02/2022 17:50:02.340,7,0,TRUE,1.375383814,103.9159657,TRUE,25.93442871,TRUE,0,0,0,TRUE,10000,TRUE,100
 03/02/2022 17:50:02.341,7,0,TRUE,1.375445159,103.9159953,TRUE,25.93442945,TRUE,0,0,0,TRUE,10000,TRUE,100
 03/02/2022 17:50:02.342,7,0,TRUE,1.375506504,103.916025,TRUE,25.93443018,TRUE,0,0,0,TRUE,10000,TRUE,100
 03/02/2022 17:50:02.343,7,0,TRUE,1.375567849,103.9160546,TRUE,25.93443092,TRUE,0,0,0,TRUE,10000,TRUE,100
 03/02/2022 17:50:02.344,7,0,TRUE,1.375629193,103.9160843,TRUE,25.93443166,TRUE,0,0,0,TRUE,10000,TRUE,100
 03/02/2022 17:50:02.345,7,0,TRUE,1.375690538,103.9161139,TRUE,25.9344324,TRUE,0,0,0,TRUE,10000,TRUE,100
 03/02/2022 17:50:02.346,7,0,TRUE,1.375751883,103.9161435,TRUE,25.93443314,TRUE,0,0,0,TRUE,10000,TRUE,100
 03/02/2022 17:50:02.347,7,0,TRUE,1.375813228,103.9161732,TRUE,25.93443388,TRUE,0,0,0,TRUE,10000,TRUE,100
 03/02/2022 17:50:02.348,7,0,TRUE,1.375874572,103.9162028,TRUE,25.93443462,TRUE,0,0,0,TRUE,10000,TRUE,100
 03/02/2022 17:50:02.349,7,0,TRUE,1.375935917,103.9162325,TRUE,25.93443537,TRUE,0,0,0,TRUE,10000,TRUE,100
 03/02/2022 17:50:02.350,7,0,TRUE,1.375997262,103.9162621,TRUE,25.9344361,TRUE,0,0,0,TRUE,10000,TRUE,100
 03/02/2022 17:50:02.351,7,0,TRUE,1.376058606,103.9162917,TRUE,25.93443685,TRUE,0,0,0,TRUE,10000,TRUE,100
 03/02/2022 17:50:02.352,7,0,TRUE,1.376119951,103.9163214,TRUE,25.93443759,TRUE,0,0,0,TRUE,10000,TRUE,100
 03/02/2022 17:50:02.353,7,0,TRUE,1.376181296,103.916351,TRUE,25.93443833,TRUE,0,0,0,TRUE,10000,TRUE,100
 03/02/2022 17:50:02.354,7,0,TRUE,1.37624264,103.9163807,TRUE,25.93443906,TRUE,0,0,0,TRUE,10000,TRUE,100
 03/02/2022 17:50:02.355,7,0,TRUE,1.376303985,103.9164103,TRUE,25.9344398,TRUE,0,0,0,TRUE,10000,TRUE,100
 03/02/2022 17:50:02.356,7,0,TRUE,1.376365329,103.91644,TRUE,25.93444054,TRUE,0,0,0,TRUE,10000,TRUE,100
 03/02/2022 17:50:02.357,7,0,TRUE,1.376426674,103.9164696,TRUE,25.93444128,TRUE,0,0,0,TRUE,10000,TRUE,100
 03/02/2022 17:50:02.358,7,0,TRUE,1.376488018,103.9164992,TRUE,25.93444202,TRUE,0,0,0,TRUE,10000,TRUE,100
 03/02/2022 17:50:02.359,7,0,TRUE,1.376549363,103.9165289,TRUE,25.93444276,TRUE,0,0,0,TRUE,10000,TRUE,100
 03/02/2022 17:50:02.360,7,0,TRUE,1.376610707,103.9165585,TRUE,25.93444351,TRUE,0,0,0,TRUE,10000,TRUE,100
 03/02/2022 17:50:02.361,7,0,TRUE,1.376672052,103.9165882,TRUE,25.93444425,TRUE,0,0,0,TRUE,10000,TRUE,100
 03/02/2022 17:50:02.362,7,0,TRUE,1.376733396,103.9166178,TRUE,25.93444499,TRUE,0,0,0,TRUE,10000,TRUE,100
 03/02/2022 17:50:02.363,7,0,TRUE,1.37679474,103.9166475,TRUE,25.93444573,TRUE,0,0,0,TRUE,10000,TRUE,100
 03/02/2022 17:50:02.364,7,0,TRUE,1.376856085,103.9166771,TRUE,25.93444647,TRUE,0,0,0,TRUE,10000,TRUE,100
